[
    {
        "title": "Southwest Arts Festival Indio",
        "start": "2019-03-24T10:00",
        "end": "2019-01-27T17:00",
        "description": "Lorep Ipsum...",
        "url": "https://www.google.com",
        "location": "Empire Polo Club",
        "address": "81800 51st Avenue Indio, CA 92201",
        "geo": {
            "latitude": "39.287266",
            "longitude": "-76.603813",
            "street": "81800 51st Avenue",
            "city": "Indio",
            "state": "CA",
            "country": "US",
            "zip": "92201"
        },
        "photo_url": "https://img.evbuc.com/https%3A%2F%2Fcdn.evbuc.com%2Fimages%2F54156458%2F122311870473%2F1%2Foriginal.20181219-172311?w=800&auto=compress&rect=0%2C27%2C930%2C465&s=85db33c531f127dbb96807176aab8553"
    },
    {
        "title": "The Desert Redux BNP Opening Party II",
        "start": "2019-03-02T17:30",
        "end": "2019-03-02T20:00",
        "description": "Lorep Ipsum...",
        "url": "https://www.google.com",
        "location": "Big Rock Pub",
        "address": "79940 Westward Ho Drive Indio, CA 92201",
        "geo": {
            "latitude": "39.287266",
            "longitude": "-76.603813",
            "street": "79940 Westward Ho Drive",
            "city": "Indio",
            "state": "CA",
            "country": "US",
            "zip": "92201"
        },
        "photo_url": "https://img.evbuc.com/https%3A%2F%2Fcdn.evbuc.com%2Fimages%2F54432760%2F197546969271%2F1%2Foriginal.20181230-144538?w=800&auto=compress&rect=0%2C0%2C1590%2C795&s=94fff1580cc6c83a91176b7db98b49e6"
    },
    {
        "title": "Cahuilla CUE Tech Fest",
        "start": "2019-02-02T08:00",
        "end": "2019-02-02T16:00",
        "description": "Lorep Ipsum...",
        "url": "https://www.google.com",
        "location": "Desert Ridge Academy Middle School",
        "address": "79767 Ave 39 Indio, CA 92203",
        "geo": {
            "latitude": "39.287266",
            "longitude": "-76.603813",
            "street": "79767 Ave 39",
            "city": "Indio",
            "state": "CA",
            "country": "US",
            "zip": "92203"
        },
        "photo_url": "https://img.evbuc.com/https%3A%2F%2Fcdn.evbuc.com%2Fimages%2F51743438%2F266330179796%2F1%2Foriginal.jpg?w=800&auto=compress&rect=73%2C0%2C2296%2C1148&s=b34a512a78df6cc3870fce8c8e55b1e1"
    }
]
